{
"type": "FeatureCollection",
"name": "cities",
"crs": { "type": "name", "properties": { "name": "urn:ogc:def:crs:OGC:1.3:CRS84" } },
"features": [
{ "type": "Feature", "properties": { "City": "Тверь", "Latitude": 56.8587214, "Longitude": 35.9175965, "lllll": "https://dasha-gis32.github.io/Tver-/", "id": 1  }, "geometry": { "type": "Point", "coordinates": [ 35.9175965, 55.8587214 ]} },
{ "type": "Feature", "properties": { "City": "Ярославль ", "Latitude": 57.6260744, "Longitude": 39.8844708, "lllll": "https://m-erts.github.io/map-okn-folium/", "id": 2 }, "geometry": { "type": "Point", "coordinates": [ 42.0, 57.6260744 ] } },
{ "type": "Feature", "properties": { "City": "Ростов Великий", "Latitude": 57.195623, "Longitude": 39.4131527, "lllll": "https://github.com/Basil-Dorin/mpa", "id": 3 }, "geometry": { "type": "Point", "coordinates": [ 39.4131527, 56.85623 ] } },
{ "type": "Feature", "properties": { "City": "Тула", "Latitude": 54.204836, "Longitude": 37.6184915, "lllll": "https://trusoffcyrille.github.io/Folium-map-Tula-OKN-/", "id": 4  }, "geometry": { "type": "Point", "coordinates": [ 37.6184915, 54.204836 ]} },
{ "type": "Feature", "properties": { "City": "Уфа", "Latitude": 54.734791, "Longitude": 55.9578555, "lllll": "https://printscreensys.github.io/interactive-web-map/", "id": 5 }, "geometry": { "type": "Point", "coordinates": [ 55.9578555, 54.734791 ] } },
{ "type": "Feature", "properties": { "City": "Челябинск", "Latitude": 55.1644419, "Longitude": 61.4368431, "lllll": "https://vslso.github.io/chelyabinsk_okn_map/", "id": 6 }, "geometry": { "type": "Point", "coordinates": [ 61.4368431, 55.1644419 ] } },
{ "type": "Feature", "properties": { "City": "Екатеринбург", "Latitude": 56.8430993, "Longitude": 60.6454086, "lllll": "https://nailbbot.github.io/Map-Ekb/", "id": 7  }, "geometry": { "type": "Point", "coordinates": [ 60.6454086, 56.8430993 ]} },
{ "type": "Feature", "properties": { "City": "Пермь", "Latitude": 58.0091683, "Longitude": 56.2269674, "lllll": "https://panssies.github.io/folium-map/", "id": 8 }, "geometry": { "type": "Point", "coordinates": [ 56.2269674, 58.0091683 ] } },
{ "type": "Feature", "properties": { "City": "Оренбург", "Latitude": 51.768156, "Longitude": 55.0969796, "lllll": "https://leone991.github.io/webmap/", "id": 9 }, "geometry": { "type": "Point", "coordinates": [ 55.0969796, 51.768156 ] } },
{ "type": "Feature", "properties": { "City": "Псков", "Latitude": 57.8166994, "Longitude": 28.3344734, "lllll": "https://eemeetu.github.io/Pskov", "id": 10 }, "geometry": { "type": "Point", "coordinates": [ 28.3344734, 57.8166994 ] } },
{ "type": "Feature", "properties": { "City": "Петрозаводск", "Latitude": 61.7781617, "Longitude": 34.3640396, "lllll": "https://goorozia.github.io/mpa_3.2/", "id": 11 }, "geometry": { "type": "Point", "coordinates": [ 34.3640396, 61.7781617 ] } },
{ "type": "Feature", "properties": { "City": "Великий Новгород", "Latitude": 58.5255698, "Longitude": 31.2741928, "lllll": "https://nbviewer.org/github/a-berez/OKN_Novgorod/blob/main/index.html", "id": 12  }, "geometry": { "type": "Point", "coordinates": [ 31.2741928, 58.5255698 ]} },
{ "type": "Feature", "properties": { "City": "Дербент", "Latitude": 42.0674251, "Longitude": 48.2890907, "lllll": "https://lazarliang.github.io", "id": 13  }, "geometry": { "type": "Point", "coordinates": [ 44.8890907, 45.0674251 ]} },
{ "type": "Feature", "properties": { "City": "Владикавказ", "Latitude": 43.0252344, "Longitude": 44.6659759, "lllll": "https://arthur-kislitsin.github.io/vladikavkaz-heritage-map/" , "id": 14}, "geometry": { "type": "Point", "coordinates": [ 44.6659759, 46.0252344 ] } }
]
}
